{
"type": "FeatureCollection",
"name": "Station de services",
"crs": { "type": "name", "properties": { "name": "urn:ogc:def:crs:OGC:1.3:CRS84" } },
"features": [
{ "type": "Feature", "properties": { "SOCIETE": "AFRIQUIA OIL ", "TYPE": "SS", "ADRESSE": "Avenue des FAR Sidi Bennour", "PROVINCE": "SIDI BENNOUR", "URBAIN": "oui", "LATITUDE": 32.660311, "LONGITUDE": -8.432256, "ETAT": "EN SERVICE" }, "geometry": { "type": "Point", "coordinates": [ -8.432256, 32.660311 ] } },
{ "type": "Feature", "properties": { "SOCIETE": "AFRIQUIA SMDC", "TYPE": "SS", "ADRESSE": "Avenue des FAR", "PROVINCE": "SIDI BENNOUR", "URBAIN": "oui", "LATITUDE": 32.645424, "LONGITUDE": -8.421376, "ETAT": "EN SERVICE" }, "geometry": { "type": "Point", "coordinates": [ -8.421376, 32.645424 ] } },
{ "type": "Feature", "properties": { "SOCIETE": "AFRIQUIA SMDC", "TYPE": "SS", "ADRESSE": "RR 303 PK 92+800 Bni Hlal", "PROVINCE": "SIDI BENNOUR", "URBAIN": "non", "LATITUDE": 32.79662, "LONGITUDE": -8.37783, "ETAT": "EN SERVICE" }, "geometry": { "type": "Point", "coordinates": [ -8.37783, 32.79662 ] } },
{ "type": "Feature", "properties": { "SOCIETE": "AFRIQUIA SMDC", "TYPE": "SS", "ADRESSE": "RN 1 PK540+820 Lahgagcha", "PROVINCE": "SIDI BENNOUR", "URBAIN": "non", "LATITUDE": 32.5401, "LONGITUDE": -8.728471, "ETAT": "EN SERVICE" }, "geometry": { "type": "Point", "coordinates": [ -8.728471, 32.5401 ] } },
{ "type": "Feature", "properties": { "SOCIETE": "AFRIQUIA SMDC", "TYPE": "SS", "ADRESSE": "Angle RP 3440 PK 15+00 R201 Centre Oulad Amrane", "PROVINCE": "SIDI BENNOUR", "URBAIN": "non", "LATITUDE": 32.395899, "LONGITUDE": -8.518092, "ETAT": "EN SERVICE" }, "geometry": { "type": "Point", "coordinates": [ -8.518092, 32.395899 ] } },
{ "type": "Feature", "properties": { "SOCIETE": "AFRIQUIA SMDC", "TYPE": "SR", "ADRESSE": "RN 1 PK 158+375 Saniat Berguig", "PROVINCE": "SIDI BENNOUR", "URBAIN": "non", "LATITUDE": 32.71576, "LONGITUDE": -8.619395, "ETAT": "EN SERVICE" }, "geometry": { "type": "Point", "coordinates": [ -8.619395, 32.71576 ] } },
{ "type": "Feature", "properties": { "SOCIETE": "AFRIQUIA SMDC", "TYPE": "SS", "ADRESSE": "RR 202 El Aounat", "PROVINCE": "SIDI BENNOUR", "URBAIN": "non", "LATITUDE": 32.744094, "LONGITUDE": -8.207153, "ETAT": "EN SERVICE" }, "geometry": { "type": "Point", "coordinates": [ -8.207153, 32.744094 ] } },
{ "type": "Feature", "properties": { "SOCIETE": "ATLAS NORD HYDOCARBURES (CEPSA)", "TYPE": "SS", "ADRESSE": "RR 202 PK 43+600 El Gharbia", "PROVINCE": "SIDI BENNOUR", "URBAIN": "non", "LATITUDE": 32.5424, "LONGITUDE": -8.8867, "ETAT": "EN SERVICE" }, "geometry": { "type": "Point", "coordinates": [ -8.8867, 32.5424 ] } },
{ "type": "Feature", "properties": { "SOCIETE": "ATLAS NORD HYDOCARBURES (CEPSA)", "TYPE": "SS", "ADRESSE": "RP 3459 PK22+461 Laounate", "PROVINCE": "SIDI BENNOUR", "URBAIN": "non", "LATITUDE": 32.736276, "LONGITUDE": -8.195297, "ETAT": "EN SERVICE" }, "geometry": { "type": "Point", "coordinates": [ -8.195297, 32.736276 ] } },
{ "type": "Feature", "properties": { "SOCIETE": "ATLAS NORD HYDOCARBURES (CEPSA)", "TYPE": "SS", "ADRESSE": "RR202  PK71+950 Laghnadra", "PROVINCE": "SIDI BENNOUR", "URBAIN": "non", "LATITUDE": 32.611893, "LONGITUDE": -8.657366, "ETAT": "EN SERVICE" }, "geometry": { "type": "Point", "coordinates": [ -8.657366, 32.611893 ] } },
{ "type": "Feature", "properties": { "SOCIETE": "ATLAS NORD HYDOCARBURES (CEPSA)", "TYPE": "SS", "ADRESSE": "RN 07 PK 44+600 Commune Tamda ", "PROVINCE": "SIDI BENNOUR", "URBAIN": "non", "LATITUDE": 32.460373, "LONGITUDE": -8.36638, "ETAT": "EN SERVICE" }, "geometry": { "type": "Point", "coordinates": [ -8.36638, 32.460373 ] } },
{ "type": "Feature", "properties": { "SOCIETE": "APPOLLO", "TYPE": "SS", "ADRESSE": "RN N 07 PK 34+000 Laatatra", "PROVINCE": "SIDI BENNOUR", "URBAIN": "non", "LATITUDE": 32.55075, "LONGITUDE": -8.37831, "ETAT": "EN SERVICE" }, "geometry": { "type": "Point", "coordinates": [ -8.37831, 32.55075 ] } },
{ "type": "Feature", "properties": { "SOCIETE": "BB ENERGY (SP)", "TYPE": "SS", "ADRESSE": "RN N 7 PK 10+900", "PROVINCE": "SIDI BENNOUR", "URBAIN": "non", "LATITUDE": 32.73622, "LONGITUDE": -8.4742, "ETAT": "EN SERVICE" }, "geometry": { "type": "Point", "coordinates": [ -8.4742, 32.73622 ] } },
{ "type": "Feature", "properties": { "SOCIETE": "CPHM", "TYPE": "SS", "ADRESSE": "RN 1 PK 182+400 Lahgagcha", "PROVINCE": "SIDI BENNOUR", "URBAIN": "non", "LATITUDE": 32.5401, "LONGITUDE": -8.728471, "ETAT": "EN SERVICE" }, "geometry": { "type": "Point", "coordinates": [ -8.728471, 32.5401 ] } },
{ "type": "Feature", "properties": { "SOCIETE": "GREEN OIL", "TYPE": "SS", "ADRESSE": "RR 202 PK 140+000 Boulaouane", "PROVINCE": "SIDI BENNOUR", "URBAIN": "non", "LATITUDE": 32.84935, "LONGITUDE": -8.07216667, "ETAT": "EN SERVICE" }, "geometry": { "type": "Point", "coordinates": [ -8.07216667, 32.84935 ] } },
{ "type": "Feature", "properties": { "SOCIETE": "GREEN OIL", "TYPE": "SS", "ADRESSE": "RN 11 PK 117+649 KOUDIAT BENI DGHOUGHE", "PROVINCE": "SIDI BENNOUR", "URBAIN": "non", "LATITUDE": 32.49893, "LONGITUDE": -8.490974, "ETAT": "EN SERVICE" }, "geometry": { "type": "Point", "coordinates": [ -8.490974, 32.49893 ] } },
{ "type": "Feature", "properties": { "SOCIETE": "INOV PETROLE", "TYPE": "SS", "ADRESSE": "RR 303 PK 105+200 Lmechrek", "PROVINCE": "SIDI BENNOUR", "URBAIN": "non", "LATITUDE": 32.68766, "LONGITUDE": -8.410322, "ETAT": "EN SERVICE" }, "geometry": { "type": "Point", "coordinates": [ -8.410322, 32.68766 ] } },
{ "type": "Feature", "properties": { "SOCIETE": "LINK ENERGY", "TYPE": "SS", "ADRESSE": "RP 3436 PK05+450 METRANE", "PROVINCE": "SIDI BENNOUR", "URBAIN": "non", "LATITUDE": 32.620799, "LONGITUDE": -8.214588, "ETAT": "EN SERVICE" }, "geometry": { "type": "Point", "coordinates": [ -8.214588, 32.620799 ] } },
{ "type": "Feature", "properties": { "SOCIETE": "OLA ENERGY MAROC", "TYPE": "SS", "ADRESSE": "Avenue Mohammed V Zemamra", "PROVINCE": "SIDI BENNOUR", "URBAIN": "oui", "LATITUDE": 32.615033, "LONGITUDE": -8.703822, "ETAT": "EN SERVICE" }, "geometry": { "type": "Point", "coordinates": [ -8.703822, 32.615033 ] } },
{ "type": "Feature", "properties": { "SOCIETE": "OLA ENERGY MAROC", "TYPE": "SR", "ADRESSE": "Tnine Gharbia", "PROVINCE": "SIDI BENNOUR", "URBAIN": "non", "LATITUDE": 32.57186, "LONGITUDE": -8.85589, "ETAT": "EN SERVICE" }, "geometry": { "type": "Point", "coordinates": [ -8.85589, 32.57186 ] } },
{ "type": "Feature", "properties": { "SOCIETE": "OLA ENERGY MAROC", "TYPE": "SS", "ADRESSE": " RN 7 PK 52+600 Tamda", "PROVINCE": "SIDI BENNOUR", "URBAIN": "non", "LATITUDE": 32.390939, "LONGITUDE": -8.361688, "ETAT": "EN SERVICE" }, "geometry": { "type": "Point", "coordinates": [ -8.361688, 32.390939 ] } },
{ "type": "Feature", "properties": { "SOCIETE": "OLA ENERGY MAROC", "TYPE": "SS", "ADRESSE": "RN 7 PK 07+900 Lmechrek", "PROVINCE": "SIDI BENNOUR", "URBAIN": "non", "LATITUDE": 32.761828, "LONGITUDE": -8.484554, "ETAT": "EN SERVICE" }, "geometry": { "type": "Point", "coordinates": [ -8.484554, 32.761828 ] } },
{ "type": "Feature", "properties": { "SOCIETE": "PETROBIG", "TYPE": "SS", "ADRESSE": "RP 3436 PK05+450 METRANE", "PROVINCE": "SIDI BENNOUR", "URBAIN": "non", "LATITUDE": 32.619419, "LONGITUDE": -8.276661, "ETAT": "EN SERVICE" }, "geometry": { "type": "Point", "coordinates": [ -8.276661, 32.619419 ] } },
{ "type": "Feature", "properties": { "SOCIETE": "PETROFIB", "TYPE": "SS", "ADRESSE": "RP 3430 Tnine Gharbia", "PROVINCE": "SIDI BENNOUR", "URBAIN": "non", "LATITUDE": 32.57623, "LONGITUDE": -8.85961, "ETAT": "EN SERVICE" }, "geometry": { "type": "Point", "coordinates": [ -8.85961, 32.57623 ] } },
{ "type": "Feature", "properties": { "SOCIETE": "PETROFIB", "TYPE": "SS", "ADRESSE": "RN 1 PK 535+600 Laghnadra", "PROVINCE": "SIDI BENNOUR", "URBAIN": "non", "LATITUDE": 32.60327, "LONGITUDE": -8.70589, "ETAT": "EN SERVICE" }, "geometry": { "type": "Point", "coordinates": [ -8.70589, 32.60327 ] } },
{ "type": "Feature", "properties": { "SOCIETE": "PETROM", "TYPE": "SS", "ADRESSE": "RR 316 PK 60+960 Boulaouane", "PROVINCE": "SIDI BENNOUR", "URBAIN": "non", "LATITUDE": 32.861375, "LONGITUDE": -8.057154, "ETAT": "EN SERVICE" }, "geometry": { "type": "Point", "coordinates": [ -8.057154, 32.861375 ] } },
{ "type": "Feature", "properties": { "SOCIETE": "PETROM", "TYPE": "SS", "ADRESSE": "RR 301 Centre Oualidia", "PROVINCE": "SIDI BENNOUR", "URBAIN": "oui", "LATITUDE": 32.73091, "LONGITUDE": -9.037097, "ETAT": "EN SERVICE" }, "geometry": { "type": "Point", "coordinates": [ -9.037097, 32.73091 ] } },
{ "type": "Feature", "properties": { "SOCIETE": "PETROM", "TYPE": "SS", "ADRESSE": " RR 303 PK11+600 Bni Hlal", "PROVINCE": "SIDI BENNOUR", "URBAIN": "non", "LATITUDE": 32.800247, "LONGITUDE": -8.376704, "ETAT": "EN SERVICE" }, "geometry": { "type": "Point", "coordinates": [ -8.376704, 32.800247 ] } },
{ "type": "Feature", "properties": { "SOCIETE": "PETROM", "TYPE": "SS", "ADRESSE": "RN 7 Mtal", "PROVINCE": "SIDI BENNOUR", "URBAIN": "non", "LATITUDE": 32.48693, "LONGITUDE": -8.37874, "ETAT": "EN SERVICE" }, "geometry": { "type": "Point", "coordinates": [ -8.37874, 32.48693 ] } },
{ "type": "Feature", "properties": { "SOCIETE": "PETROM", "TYPE": "SS", "ADRESSE": "RR 202 PK 65+000 Laghnadra", "PROVINCE": "SIDI BENNOUR", "URBAIN": "non", "LATITUDE": 32.63112, "LONGITUDE": -8.73074, "ETAT": "EN SERVICE" }, "geometry": { "type": "Point", "coordinates": [ -8.73074, 32.63112 ] } },
{ "type": "Feature", "properties": { "SOCIETE": "PETROM", "TYPE": "SS", "ADRESSE": "RN N 1 Zemamra", "PROVINCE": "SIDI BENNOUR", "URBAIN": "oui", "LATITUDE": 32.619321, "LONGITUDE": -8.702938, "ETAT": "EN SERVICE" }, "geometry": { "type": "Point", "coordinates": [ -8.702938, 32.619321 ] } },
{ "type": "Feature", "properties": { "SOCIETE": "PETROM", "TYPE": "SS", "ADRESSE": "RR 202 67+500 Zemamra", "PROVINCE": "SIDI BENNOUR", "URBAIN": "oui", "LATITUDE": 32.617901, "LONGITUDE": -8.692535, "ETAT": "EN SERVICE" }, "geometry": { "type": "Point", "coordinates": [ -8.692535, 32.617901 ] } },
{ "type": "Feature", "properties": { "SOCIETE": "PETROM", "TYPE": "SS", "ADRESSE": "RR 201 PK 107+050 Koudiat Bni Dghough", "PROVINCE": "SIDI BENNOUR", "URBAIN": "non", "LATITUDE": 32.409003, "LONGITUDE": -8.515364, "ETAT": "EN SERVICE" }, "geometry": { "type": "Point", "coordinates": [ -8.515364, 32.409003 ] } },
{ "type": "Feature", "properties": { "SOCIETE": "PETROMIN OILS", "TYPE": "SS", "ADRESSE": "RN 7 PK39+700 MTAL", "PROVINCE": "SIDI BENNOUR", "URBAIN": "non", "LATITUDE": 32.502284, "LONGITUDE": -8.382955, "ETAT": "EN SERVICE" }, "geometry": { "type": "Point", "coordinates": [ -8.382955, 32.502284 ] } },
{ "type": "Feature", "properties": { "SOCIETE": "PETROMIN OILS", "TYPE": "SS", "ADRESSE": "SISE RN N 11 PK 124+914\nCOMMUNE AOUNATE\nPROVINCE DE SIDI BENNOUR\n", "PROVINCE": "SIDI BENNOUR", "URBAIN": "non", "LATITUDE": 32.74977198, "LONGITUDE": -8.18157807, "ETAT": "EN SERVICE" }, "geometry": { "type": "Point", "coordinates": [ -8.18157807, 32.74977198 ] } },
{ "type": "Feature", "properties": { "SOCIETE": "PETROSTAR", "TYPE": "SS", "ADRESSE": "RR 202 PK57+000 Oulad Sbita", "PROVINCE": "SIDI BENNOUR", "URBAIN": "non", "LATITUDE": 32.6291, "LONGITUDE": -8.8082, "ETAT": "EN SERVICE" }, "geometry": { "type": "Point", "coordinates": [ -8.8082, 32.6291 ] } },
{ "type": "Feature", "properties": { "SOCIETE": "PETROSUD", "TYPE": "SS", "ADRESSE": "RP 3430 PK 53+160 KRIDID", "PROVINCE": "SIDI BENNOUR", "URBAIN": "non", "LATITUDE": 32.49433, "LONGITUDE": -8.57483, "ETAT": "EN SERVICE" }, "geometry": { "type": "Point", "coordinates": [ -8.57483, 32.49433 ] } },
{ "type": "Feature", "properties": { "SOCIETE": "SDCC", "TYPE": "SS", "ADRESSE": "RR 202 Bouhmam", "PROVINCE": "SIDI BENNOUR", "URBAIN": "non", "LATITUDE": 32.574444, "LONGITUDE": -8.560163, "ETAT": "EN SERVICE" }, "geometry": { "type": "Point", "coordinates": [ -8.560163, 32.574444 ] } },
{ "type": "Feature", "properties": { "SOCIETE": "SDCC", "TYPE": "SS", "ADRESSE": "RN 1 PK514+970 Saniat Berguig", "PROVINCE": "SIDI BENNOUR", "URBAIN": "non", "LATITUDE": 32.7504325, "LONGITUDE": -8.5830957, "ETAT": "EN SERVICE" }, "geometry": { "type": "Point", "coordinates": [ -8.5830957, 32.7504325 ] } },
{ "type": "Feature", "properties": { "SOCIETE": "SEG LOGISTICS (TOP PETROL)", "TYPE": "SS", "ADRESSE": "RN 7 PK37+700 Mtal", "PROVINCE": "SIDI BENNOUR", "URBAIN": "non", "LATITUDE": 32.51878, "LONGITUDE": -8.37995, "ETAT": "EN SERVICE" }, "geometry": { "type": "Point", "coordinates": [ -8.37995, 32.51878 ] } },
{ "type": "Feature", "properties": { "SOCIETE": "SOMAP", "TYPE": "SS", "ADRESSE": "RN 1 PK 528+000 Laghnadra", "PROVINCE": "SIDI BENNOUR", "URBAIN": "non", "LATITUDE": 32.64985, "LONGITUDE": -8.66453, "ETAT": "EN SERVICE" }, "geometry": { "type": "Point", "coordinates": [ -8.66453, 32.64985 ] } },
{ "type": "Feature", "properties": { "SOCIETE": "TOTALENERGIES MAROC", "TYPE": "SS", "ADRESSE": "Avenue Mohammed V Sidi Bennour", "PROVINCE": "SIDI BENNOUR", "URBAIN": "oui", "LATITUDE": 32.649483, "LONGITUDE": -8.431068, "ETAT": "EN SERVICE" }, "geometry": { "type": "Point", "coordinates": [ -8.431068, 32.649483 ] } },
{ "type": "Feature", "properties": { "SOCIETE": "TOTALENERGIES MAROC", "TYPE": "SS", "ADRESSE": "RN 7 PK11+281 Lmechrek", "PROVINCE": "SIDI BENNOUR", "URBAIN": "non", "LATITUDE": 32.729003, "LONGITUDE": -8.472265, "ETAT": "EN SERVICE" }, "geometry": { "type": "Point", "coordinates": [ -8.472265, 32.729003 ] } },
{ "type": "Feature", "properties": { "SOCIETE": "TOTALENERGIES MAROC", "TYPE": "SS", "ADRESSE": "RP 8 PK600+180 CR Lahgagcha", "PROVINCE": "SIDI BENNOUR", "URBAIN": "non", "LATITUDE": 32.556385, "LONGITUDE": -8.72465, "ETAT": "EN SERVICE" }, "geometry": { "type": "Point", "coordinates": [ -8.72465, 32.556385 ] } },
{ "type": "Feature", "properties": { "SOCIETE": "TOTALENERGIES MAROC", "TYPE": "SS", "ADRESSE": "RN 1 PK 529+000 Laghnadra", "PROVINCE": "SIDI BENNOUR", "URBAIN": "non", "LATITUDE": 32.635347, "LONGITUDE": -8.681391, "ETAT": "EN SERVICE" }, "geometry": { "type": "Point", "coordinates": [ -8.681391, 32.635347 ] } },
{ "type": "Feature", "properties": { "SOCIETE": "UNITED PETROLEUM", "TYPE": "SS", "ADRESSE": "RP 3426 PK 15+900 BNI HLAL", "PROVINCE": "SIDI BENNOUR", "URBAIN": "non", "LATITUDE": 32.799931, "LONGITUDE": -8.129185, "ETAT": "EN SERVICE" }, "geometry": { "type": "Point", "coordinates": [ -8.129185, 32.799931 ] } },
{ "type": "Feature", "properties": { "SOCIETE": "UNITED PETROLEUM", "TYPE": "SS", "ADRESSE": "RR 202 PK 49+450 El Gharbia", "PROVINCE": "SIDI BENNOUR", "URBAIN": "non", "LATITUDE": 32.58283, "LONGITUDE": -8.856331, "ETAT": "EN SERVICE" }, "geometry": { "type": "Point", "coordinates": [ -8.856331, 32.58283 ] } },
{ "type": "Feature", "properties": { "SOCIETE": "UNITED PETROLEUM", "TYPE": "SS", "ADRESSE": "RN 11 PK 131+200 Bni Tsiriss", "PROVINCE": "SIDI BENNOUR", "URBAIN": "non", "LATITUDE": 32.786261, "LONGITUDE": -8.129185, "ETAT": "EN SERVICE" }, "geometry": { "type": "Point", "coordinates": [ -8.129185, 32.786261 ] } },
{ "type": "Feature", "properties": { "SOCIETE": "UNITED PETROLEUM", "TYPE": "SS", "ADRESSE": "RN N 11 PK 126+400 COMMUNE BOUHMAME\nPROVINCE DE SIDI BENNOUR\n", "PROVINCE": "SIDI BENNOUR", "URBAIN": "non", "LATITUDE": 33.323669, "LONGITUDE": -8.126129, "ETAT": "EN SERVICE" }, "geometry": { "type": "Point", "coordinates": [ -8.126129, 33.323669 ] } },
{ "type": "Feature", "properties": { "SOCIETE": "VIVO ENERGY MAROC", "TYPE": "SS", "ADRESSE": "Avenue des FAR Sidi Bennour", "PROVINCE": "SIDI BENNOUR", "URBAIN": "oui", "LATITUDE": 32.641741, "LONGITUDE": -8.418853, "ETAT": "EN SERVICE" }, "geometry": { "type": "Point", "coordinates": [ -8.418853, 32.641741 ] } },
{ "type": "Feature", "properties": { "SOCIETE": "VIVO ENERGY MAROC", "TYPE": "SS", "ADRESSE": "Avenue des FAR Sidi Bennour", "PROVINCE": "SIDI BENNOUR", "URBAIN": "oui", "LATITUDE": 32.659724, "LONGITUDE": -8.431606, "ETAT": "EN SERVICE" }, "geometry": { "type": "Point", "coordinates": [ -8.431606, 32.659724 ] } },
{ "type": "Feature", "properties": { "SOCIETE": "VIVO ENERGY MAROC", "TYPE": "SS", "ADRESSE": "RR 301 Oualidia centre", "PROVINCE": "SIDI BENNOUR", "URBAIN": "oui", "LATITUDE": 32.739658, "LONGITUDE": -9.024975, "ETAT": "EN SERVICE" }, "geometry": { "type": "Point", "coordinates": [ -9.024975, 32.739658 ] } },
{ "type": "Feature", "properties": { "SOCIETE": "VIVO ENERGY MAROC", "TYPE": "SR", "ADRESSE": "RP 3430 Oualidia", "PROVINCE": "SIDI BENNOUR", "URBAIN": "oui", "LATITUDE": 32.733243, "LONGITUDE": -9.028717, "ETAT": "EN SERVICE" }, "geometry": { "type": "Point", "coordinates": [ -9.028717, 32.733243 ] } },
{ "type": "Feature", "properties": { "SOCIETE": "VIVO ENERGY MAROC", "TYPE": "SS", "ADRESSE": "Avenue Mohammed V Zemamra", "PROVINCE": "SIDI BENNOUR", "URBAIN": "oui", "LATITUDE": 32.614674, "LONGITUDE": -8.703995, "ETAT": "EN SERVICE" }, "geometry": { "type": "Point", "coordinates": [ -8.703995, 32.614674 ] } },
{ "type": "Feature", "properties": { "SOCIETE": "VIVO ENERGY MAROC", "TYPE": "SS", "ADRESSE": "Avenue Mohammed V Zemamra", "PROVINCE": "SIDI BENNOUR", "URBAIN": "oui", "LATITUDE": 32.615636, "LONGITUDE": -8.704344, "ETAT": "EN SERVICE" }, "geometry": { "type": "Point", "coordinates": [ -8.704344, 32.615636 ] } },
{ "type": "Feature", "properties": { "SOCIETE": "VIVO ENERGY MAROC", "TYPE": "SS", "ADRESSE": "RR 201 PK 106+200 Oulad Amrane", "PROVINCE": "SIDI BENNOUR", "URBAIN": "non", "LATITUDE": 32.400142, "LONGITUDE": -8.517716, "ETAT": "EN SERVICE" }, "geometry": { "type": "Point", "coordinates": [ -8.517716, 32.400142 ] } },
{ "type": "Feature", "properties": { "SOCIETE": "VIVO ENERGY MAROC", "TYPE": "SS", "ADRESSE": "RP 3440 PK 56+600 Tnine Gharbia", "PROVINCE": "SIDI BENNOUR", "URBAIN": "non", "LATITUDE": 32.57079, "LONGITUDE": -8.85445, "ETAT": "EN SERVICE" }, "geometry": { "type": "Point", "coordinates": [ -8.85445, 32.57079 ] } },
{ "type": "Feature", "properties": { "SOCIETE": "VIVO ENERGY MAROC", "TYPE": "SS", "ADRESSE": "RN 7 PK7+600 Lmechrek", "PROVINCE": "SIDI BENNOUR", "URBAIN": "non", "LATITUDE": 32.763635, "LONGITUDE": -8.48516, "ETAT": "EN SERVICE" }, "geometry": { "type": "Point", "coordinates": [ -8.48516, 32.763635 ] } },
{ "type": "Feature", "properties": { "SOCIETE": "VIVO ENERGY MAROC", "TYPE": "SS", "ADRESSE": "Had Aounate Matrane", "PROVINCE": "SIDI BENNOUR", "URBAIN": "non", "LATITUDE": 32.61421, "LONGITUDE": -8.22332, "ETAT": "EN SERVICE" }, "geometry": { "type": "Point", "coordinates": [ -8.22332, 32.61421 ] } },
{ "type": "Feature", "properties": { "SOCIETE": "VIVO ENERGY MAROC", "TYPE": "SS", "ADRESSE": "RN 11 PK 119+630\nCommune Laaounate", "PROVINCE": "SIDI BENNOUR", "URBAIN": "non", "LATITUDE": 32.7365, "LONGITUDE": -8.230374, "ETAT": "EN SERVICE" }, "geometry": { "type": "Point", "coordinates": [ -8.230374, 32.7365 ] } },
{ "type": "Feature", "properties": { "SOCIETE": "WINXO", "TYPE": "SS", "ADRESSE": "RR 202 PK 124+600 Laaounate", "PROVINCE": "SIDI BENNOUR", "URBAIN": "non", "LATITUDE": 32.74905, "LONGITUDE": -8.182498, "ETAT": "EN SERVICE" }, "geometry": { "type": "Point", "coordinates": [ -8.182498, 32.74905 ] } },
{ "type": "Feature", "properties": { "SOCIETE": "WINXO", "TYPE": "SS", "ADRESSE": "RN 7 PK 26+000 Laatatra", "PROVINCE": "SIDI BENNOUR", "URBAIN": "non", "LATITUDE": 32.608749, "LONGITUDE": -8.401342, "ETAT": "EN SERVICE" }, "geometry": { "type": "Point", "coordinates": [ -8.401342, 32.608749 ] } },
{ "type": "Feature", "properties": { "SOCIETE": "WINXO", "TYPE": "SR", "ADRESSE": "RN 1 PK 514 Saniat Berguig", "PROVINCE": "SIDI BENNOUR", "URBAIN": "non", "LATITUDE": 32.75283, "LONGITUDE": -8.57855, "ETAT": "EN SERVICE" }, "geometry": { "type": "Point", "coordinates": [ -8.57855, 32.75283 ] } },
{ "type": "Feature", "properties": { "SOCIETE": "WINXO", "TYPE": "SS", "ADRESSE": "RR N 202 PK 93+300 Commune Bohmam", "PROVINCE": "SIDI BENNOUR", "URBAIN": "non", "LATITUDE": 32.633091, "LONGITUDE": -8.457512, "ETAT": "EN SERVICE" }, "geometry": { "type": "Point", "coordinates": [ -8.457512, 32.633091 ] } },
{ "type": "Feature", "properties": { "SOCIETE": "ZIZ", "TYPE": "SS", "ADRESSE": "RR 202 PK 138+73 Boulouane", "PROVINCE": "SIDI BENNOUR", "URBAIN": "non", "LATITUDE": 32.8349, "LONGITUDE": -8.08454, "ETAT": "EN SERVICE" }, "geometry": { "type": "Point", "coordinates": [ -8.08454, 32.8349 ] } },
{ "type": "Feature", "properties": { "SOCIETE": "ZIZ", "TYPE": "SS", "ADRESSE": "RN 1 PK 514 Saniat Berguig", "PROVINCE": "SIDI BENNOUR", "URBAIN": "non", "LATITUDE": 32.75018, "LONGITUDE": -8.583739, "ETAT": "EN SERVICE" }, "geometry": { "type": "Point", "coordinates": [ -8.583739, 32.75018 ] } },
{ "type": "Feature", "properties": { "SOCIETE": "ZIZ", "TYPE": "SS", "ADRESSE": "RR 303 PK 1 route de Bni Hilal", "PROVINCE": "SIDI BENNOUR", "URBAIN": "oui", "LATITUDE": 32.66143, "LONGITUDE": -8.42179, "ETAT": "EN SERVICE" }, "geometry": { "type": "Point", "coordinates": [ -8.42179, 32.66143 ] } },
{ "type": "Feature", "properties": { "SOCIETE": "ZIZ", "TYPE": "SS", "ADRESSE": "RP 3430 PK 88+280 khemiss Ksiba", "PROVINCE": "SIDI BENNOUR", "URBAIN": "non", "LATITUDE": 32.51971, "LONGITUDE": -8.25464, "ETAT": "EN SERVICE" }, "geometry": { "type": "Point", "coordinates": [ -8.25464, 32.51971 ] } },
{ "type": "Feature", "properties": { "SOCIETE": "ZIZ", "TYPE": "SS", "ADRESSE": "RR 202 PK58+100 Ouled Sbita", "PROVINCE": "SIDI BENNOUR", "URBAIN": "non", "LATITUDE": 32.6305, "LONGITUDE": -8.79974, "ETAT": "EN SERVICE" }, "geometry": { "type": "Point", "coordinates": [ -8.79974, 32.6305 ] } },
{ "type": "Feature", "properties": { "SOCIETE": "ZIZ", "TYPE": "SS", "ADRESSE": "RR 202 PK 91+700 Bouhmam", "PROVINCE": "SIDI BENNOUR", "URBAIN": "non", "LATITUDE": 32.61683, "LONGITUDE": -8.47764, "ETAT": "EN SERVICE" }, "geometry": { "type": "Point", "coordinates": [ -8.47764, 32.61683 ] } },
{ "type": "Feature", "properties": { "SOCIETE": "ZIZ", "TYPE": "SS", "ADRESSE": "RR 202 PK 109+200 Ouled Si Bouhya", "PROVINCE": "SIDI BENNOUR", "URBAIN": "non", "LATITUDE": 32.691407, "LONGITUDE": -8.342698, "ETAT": "EN SERVICE" }, "geometry": { "type": "Point", "coordinates": [ -8.342698, 32.691407 ] } },
{ "type": "Feature", "properties": { "SOCIETE": "ZIZ", "TYPE": "SS", "ADRESSE": "Sebt Maarif", "PROVINCE": "SIDI BENNOUR", "URBAIN": "non", "LATITUDE": 32.497236, "LONGITUDE": -8.573969, "ETAT": "EN SERVICE" }, "geometry": { "type": "Point", "coordinates": [ -8.573969, 32.497236 ] } },
{ "type": "Feature", "properties": { "SOCIETE": "EXON ENERGY", "TYPE": "SS", "ADRESSE": "Commune Laaounate", "PROVINCE": "SIDI BENNOUR", "URBAIN": "non", "LATITUDE": 32.7365, "LONGITUDE": -8.230374, "ETAT": "EN SERVICE" }, "geometry": { "type": "Point", "coordinates": [ -8.230374, 32.7365 ] } },
{ "type": "Feature", "properties": { "SOCIETE": "EXON ENERGY", "TYPE": "SS", "ADRESSE": "Commune Mtal", "PROVINCE": "SIDI BENNOUR", "URBAIN": "non", "LATITUDE": 32.502919, "LONGITUDE": -8.383009, "ETAT": "EN SERVICE" }, "geometry": { "type": "Point", "coordinates": [ -8.383009, 32.502919 ] } },
{ "type": "Feature", "properties": { "SOCIETE": "EXON ENERGY", "TYPE": "SS", "ADRESSE": "Commune Tamda", "PROVINCE": "SIDI BENNOUR", "URBAIN": "non", "LATITUDE": 32.506997, "LONGITUDE": -8.488695, "ETAT": "EN SERVICE" }, "geometry": { "type": "Point", "coordinates": [ -8.488695, 32.506997 ] } },
{ "type": "Feature", "properties": { "SOCIETE": "SIMANE PETROLEUM", "TYPE": "SS", "ADRESSE": "RR N  202 PK 42+300 Commune TNIN LGHARBIYA SIDI BENNOUR", "PROVINCE": "SIDI BENNOUR", "URBAIN": "non", "LATITUDE": 32.536806, "LONGITUDE": -8.886979, "ETAT": "EN SERVICE" }, "geometry": { "type": "Point", "coordinates": [ -8.886979, 32.536806 ] } },
{ "type": "Feature", "properties": { "SOCIETE": "SIMANE PETROLEUM", "TYPE": "SS", "ADRESSE": "RN  11 PK 125+100 Commune Bouhmam", "PROVINCE": "SIDI BENNOUR", "URBAIN": "non", "LATITUDE": 32.562976, "LONGITUDE": -8.453324, "ETAT": "EN SERVICE" }, "geometry": { "type": "Point", "coordinates": [ -8.453324, 32.562976 ] } },
{ "type": "Feature", "properties": { "SOCIETE": "SIMANE PETROLEUM", "TYPE": "SS", "ADRESSE": "RN N 11 PK 121+100 Commune LAAOUNATE Province de SIDI BENNOUR", "PROVINCE": "SIDI BENNOUR", "URBAIN": "non", "LATITUDE": 32.74396, "LONGITUDE": -8.210262, "ETAT": "EN SERVICE" }, "geometry": { "type": "Point", "coordinates": [ -8.210262, 32.74396 ] } },
{ "type": "Feature", "properties": { "SOCIETE": "PETROSTAR", "TYPE": "SS", "ADRESSE": "RN 11 Commune rurale ouled amrane", "PROVINCE": "SIDI BENNOUR", "URBAIN": "non", "LATITUDE": 32.38816, "LONGITUDE": -8.51774, "ETAT": "EN PROJET" }, "geometry": { "type": "Point", "coordinates": [ -8.51774, 32.38816 ] } },
{ "type": "Feature", "properties": { "SOCIETE": "PETROBIG", "TYPE": "SS", "ADRESSE": "RR 202 PK 81+880 Commune rurale BOUHMAME", "PROVINCE": "SIDI BENNOUR", "URBAIN": "non", "LATITUDE": 32.572, "LONGITUDE": -8.5664, "ETAT": "EN PROJET" }, "geometry": { "type": "Point", "coordinates": [ -8.5664, 32.572 ] } },
{ "type": "Feature", "properties": { "SOCIETE": "UNITED PETROLEUM", "TYPE": "SS", "ADRESSE": "RR 202 PK 76+660 Commune rurale BOUHMAME", "PROVINCE": "SIDI BENNOUR", "URBAIN": "non", "LATITUDE": 32.589449, "LONGITUDE": -8.602608, "ETAT": "EN PROJET" }, "geometry": { "type": "Point", "coordinates": [ -8.602608, 32.589449 ] } },
{ "type": "Feature", "properties": { "SOCIETE": "OKAY ENERGY", "TYPE": "SS", "ADRESSE": "RN 11 PK 120+800 Commune rurale BOUHMAME", "PROVINCE": "SIDI BENNOUR", "URBAIN": "non", "LATITUDE": 32.530034, "LONGITUDE": -8.473786, "ETAT": "EN PROJET" }, "geometry": { "type": "Point", "coordinates": [ -8.473786, 32.530034 ] } },
{ "type": "Feature", "properties": { "SOCIETE": "PETROM", "TYPE": "SS", "ADRESSE": "RN 11 PK105+251 Commune rurale ouled amrane", "PROVINCE": "SIDI BENNOUR", "URBAIN": "non", "LATITUDE": 32.387683, "LONGITUDE": -8.517195, "ETAT": "EN PROJET" }, "geometry": { "type": "Point", "coordinates": [ -8.517195, 32.387683 ] } },
{ "type": "Feature", "properties": { "SOCIETE": "PETROM", "TYPE": "SS", "ADRESSE": "RN 11 PK122+275 Commune rurale LAOUNATE", "PROVINCE": "SIDI BENNOUR", "URBAIN": "non", "LATITUDE": 32.7444118, "LONGITUDE": -8.216047, "ETAT": "EN PROJET" }, "geometry": { "type": "Point", "coordinates": [ -8.216047, 32.7444118 ] } },
{ "type": "Feature", "properties": { "SOCIETE": "SEG LOGITICS", "TYPE": "SS", "ADRESSE": "RR 202 PK 81+880 Commune rurale  BOUHMAME", "PROVINCE": "SIDI BENNOUR", "URBAIN": "non", "LATITUDE": 32.572, "LONGITUDE": -8.5664, "ETAT": "EN PROJET" }, "geometry": { "type": "Point", "coordinates": [ -8.5664, 32.572 ] } },
{ "type": "Feature", "properties": { "SOCIETE": "COMPLEXE BAB TEMIA", "TYPE": "SS", "ADRESSE": "RN 7 PK39+630 Commune rurale MTAL", "PROVINCE": "SIDI BENNOUR", "URBAIN": "non", "LATITUDE": 32.502919, "LONGITUDE": -8.383009, "ETAT": "EN PROJET" }, "geometry": { "type": "Point", "coordinates": [ -8.383009, 32.502919 ] } },
{ "type": "Feature", "properties": { "SOCIETE": "COMPEKT TRADING", "TYPE": "SS", "ADRESSE": "RR 202 PK 82+880 Commune rurale BOUHMAME", "PROVINCE": "SIDI BENNOUR", "URBAIN": "non", "LATITUDE": 32.574444, "LONGITUDE": -8.556944, "ETAT": "EN PROJET" }, "geometry": { "type": "Point", "coordinates": [ -8.556944, 32.574444 ] } }
]
}
